,station_network_code,station_channel_code,station_code,station_location_code,station_latitude_deg,station_longitude_deg,station_elevation_m,qualified_station,count
0,UW,BH,GNW,--,47.564,-122.825,220.0,UW.GNW.--,4588
1,UW,EH,RPW,--,48.448,-121.515,850.0,UW.RPW.--,1406
2,UW,BH,SQM,--,48.074,-123.048,45.0,UW.SQM.--,337
3,UW,EH,MCW,--,48.679,-122.833,693.0,UW.MCW.--,660
4,UW,HH,SP2,--,47.556,-122.249,30.0,UW.SP2.--,460
5,UW,BH,TTW,--,47.694,-121.69,542.0,UW.TTW.--,385
8,UW,EH,CMW,--,48.423,-122.12,1190.0,UW.CMW.--,536
10,UW,EH,JCW,--,48.195,-121.927,792.0,UW.JCW.--,1934
11,UW,EH,GSM,--,47.204,-121.796,1313.0,UW.GSM.--,505
15,UW,BH,OPC,--,48.1,-123.413,90.0,UW.OPC.--,123
16,UW,EH,FMW,--,46.941,-121.671,1859.0,UW.FMW.--,1976
18,UW,EH,RVC,--,46.944,-121.974,1000.0,UW.RVC.--,1058
20,UW,EH,PGW,--,47.822,-122.601,122.0,UW.PGW.--,2
23,UW,EH,SAW,--,47.702,-119.402,701.0,UW.SAW.--,229
31,UW,EH,EPH,--,47.356,-119.597,661.0,UW.EPH.--,65
35,UW,HH,ELW,--,47.494,-121.873,267.0,UW.ELW.--,376
36,UW,EH,LCW,--,46.67,-122.702,396.0,UW.LCW.--,237
37,UW,EH,HTW,--,47.804,-121.769,833.0,UW.HTW.--,2486
40,UW,EH,RCM,--,46.836,-121.733,3085.0,UW.RCM.--,2148
42,UW,EH,WPW,--,46.699,-121.537,1280.0,UW.WPW.--,444
49,UW,EH,OD2,--,47.388,-118.711,553.0,UW.OD2.--,90
52,US,BH,HAWA,--,46.392,-119.533,364.0,US.HAWA.--,1293
53,UW,BH,LON,--,46.751,-121.81,853.0,UW.LON.--,1554
58,UW,EH,CPW,--,46.974,-123.138,792.0,UW.CPW.--,160
59,UW,EH,RVW,--,46.15,-122.743,504.0,UW.RVW.--,729
60,UW,EH,WIB,--,46.343,-123.876,503.0,UW.WIB.--,32
61,UW,EH,FL2,--,46.196,-122.352,1378.0,UW.FL2.--,2967
65,UW,EH,MBW,--,48.784,-121.901,1676.0,UW.MBW.--,372
66,UW,EH,HAM,--,42.069,-121.971,1999.0,UW.HAM.--,5
67,UO,BH,EUO,--,44.029,-123.07,160.0,UO.EUO.--,45
69,UW,EH,HDW,--,47.648,-123.055,1006.0,UW.HDW.--,4422
71,UW,EH,BLN,--,48.007,-122.973,601.0,UW.BLN.--,1015
73,UW,EH,TDL,--,46.351,-122.217,1400.0,UW.TDL.--,1147
75,UW,EH,OOW,--,47.734,-124.188,561.0,UW.OOW.--,38
80,UW,EH,RER,--,46.819,-121.842,1756.0,UW.RER.--,2176
81,UW,EH,GMW,--,47.548,-122.788,506.0,UW.GMW.--,634
83,UW,EH,MEW,--,47.202,-122.647,97.0,UW.MEW.--,59
85,UO,BH,DBO,--,43.119,-123.244,957.0,UO.DBO.--,119
86,UW,EH,LAB,--,42.268,-122.063,1774.0,UW.LAB.--,200
89,US,BH,WVOR,--,42.434,-118.637,1344.0,US.WVOR.--,76
90,UW,EH,DPW,--,47.87,-118.204,892.0,UW.DPW.--,17
91,UW,EH,FHE,--,46.952,-119.498,455.0,UW.FHE.--,227
92,UW,EH,CRF,--,46.825,-119.388,189.0,UW.CRF.--,129
94,US,BH,NEW,--,48.264,-117.123,760.0,US.NEW.--,19
96,UW,EH,GHW,--,47.041,-122.274,268.0,UW.GHW.--,129
98,UW,EH,SMW,--,47.319,-123.344,877.0,UW.SMW.--,196
102,UW,EH,RVN,--,47.027,-121.338,1885.0,UW.RVN.--,10
115,UW,EH,GLK,--,46.557,-121.611,1305.0,UW.GLK.--,217
116,UW,EH,ASR,--,46.153,-121.602,1357.0,UW.ASR.--,135
129,UW,EH,SHW,--,46.194,-122.236,1425.0,UW.SHW.--,243
144,UW,EH,RMW,--,47.459,-121.807,1024.0,UW.RMW.--,193
148,UW,EH,VGB,--,45.516,-120.779,729.0,UW.VGB.--,27
165,UW,EH,NLO,--,46.089,-123.452,826.0,UW.NLO.--,23
173,UW,EH,SVOH,--,48.289,-122.633,22.0,UW.SVOH.--,50
174,UW,EH,RCS,--,46.871,-121.732,2877.0,UW.RCS.--,1175
182,UW,EH,CMM,--,46.435,-122.507,620.0,UW.CMM.--,61
186,UW,EH,VFP,--,45.318,-121.466,1716.0,UW.VFP.--,387
188,UW,EH,BRO,--,44.267,-122.453,1341.0,UW.BRO.--,141
195,UW,EH,WAT,--,47.699,-119.955,821.0,UW.WAT.--,595
197,UW,EH,CBS,--,47.805,-120.043,1067.0,UW.CBS.--,1196
198,UW,EH,VLL,--,45.463,-121.68,1195.0,UW.VLL.--,151
205,UW,EH,HOG,--,42.243,-121.706,1892.0,UW.HOG.--,32
208,UW,HH,ERW,--,48.454,-122.626,387.0,UW.ERW.--,45
211,UW,EH,OSD,--,47.816,-123.705,2008.0,UW.OSD.--,138
220,UW,EH,EDM,--,46.197,-122.151,1609.0,UW.EDM.--,69
222,UW,EH,JUN,--,46.147,-122.152,1049.0,UW.JUN.--,604
224,UW,EH,SOS,--,46.244,-122.138,1270.0,UW.SOS.--,642
228,UW,EH,WRW,--,47.856,-120.883,1189.0,UW.WRW.--,131
231,UW,EH,KMO,--,45.635,-123.491,975.0,UW.KMO.--,219
235,UW,EH,SSO,--,44.856,-122.462,1242.0,UW.SSO.--,24
238,UW,EH,PRO,--,46.212,-119.687,553.0,UW.PRO.--,98
246,UW,EH,ETW,--,47.605,-120.332,1469.0,UW.ETW.--,822
270,UW,EH,GPW,--,48.118,-121.138,2354.0,UW.GPW.--,570
271,UW,EH,NAC,--,46.733,-120.825,728.0,UW.NAC.--,222
275,UW,EH,OT3,--,46.669,-119.234,322.0,UW.OT3.--,196
288,UW,EH,MJ2,--,46.557,-119.36,146.0,UW.MJ2.--,228
294,UW,EH,GUL,--,45.924,-121.597,1189.0,UW.GUL.--,51
300,UW,EH,TRW,--,46.292,-120.543,723.0,UW.TRW.--,128
303,UW,EH,GBL,--,46.598,-119.461,330.0,UW.GBL.--,204
304,UW,EH,RSW,--,46.394,-119.592,1045.0,UW.RSW.--,251
306,UW,EH,SEP,--,46.2,-122.191,2116.0,UW.SEP.--,2
317,UW,EH,STW,--,48.151,-123.671,308.0,UW.STW.--,90
321,UW,EH,VLM,--,45.538,-122.04,1150.0,UW.VLM.--,36
322,UW,EH,VBE,--,45.06,-121.588,1544.0,UW.VBE.--,56
324,UW,EH,SLF,--,47.761,-120.529,1750.0,UW.SLF.--,331
329,UW,EH,LVP,--,46.066,-122.402,1130.0,UW.LVP.--,1600
348,UW,EH,OCP,--,48.298,-124.625,487.0,UW.OCP.--,131
368,UW,EH,WA2,--,46.755,-119.567,244.0,UW.WA2.--,315
370,UW,EH,OTR,--,48.086,-124.343,712.0,UW.OTR.--,156
373,UW,EH,ELL,--,46.91,-120.567,789.0,UW.ELL.--,149
374,UW,EH,NEL,--,48.07,-120.341,1500.0,UW.NEL.--,747
375,UW,EH,DY2,--,47.985,-119.772,892.0,UW.DY2.--,285
379,UW,EH,CDF,--,46.117,-122.046,756.0,UW.CDF.--,776
381,UW,EH,BOW,--,46.475,-123.229,870.0,UW.BOW.--,145
382,UW,EH,ELK,--,46.305,-122.342,1270.0,UW.ELK.--,3545
390,UW,EH,HSR,--,46.174,-122.181,1720.0,UW.HSR.--,193
392,UW,EH,LO2,--,46.751,-121.81,853.0,UW.LO2.--,589
425,UW,EH,SFER,--,47.619,-117.367,715.0,UW.SFER.--,1
427,UW,EH,UWFH,--,48.545,-123.014,8.0,UW.UWFH.--,123
435,UW,EH,KOS,--,46.463,-122.196,610.0,UW.KOS.--,546
451,UW,EH,STD,--,46.238,-122.224,1268.0,UW.STD.--,70
464,UW,EH,BVW,--,46.811,-119.883,670.0,UW.BVW.--,76
472,UW,EH,TDH,--,45.29,-121.791,1541.0,UW.TDH.--,801
473,UW,EH,YEL,--,46.209,-122.189,1750.0,UW.YEL.--,6
482,UW,EH,MOX,--,46.577,-120.299,501.0,UW.MOX.--,472
484,UW,EH,YA2,--,46.526,-120.531,652.0,UW.YA2.--,202
500,UW,EH,WRD,--,46.97,-119.146,375.0,UW.WRD.--,63
547,UW,EH,MTM,--,46.025,-122.213,1121.0,UW.MTM.--,679
564,UO,EH,IRO,--,44.005,-122.255,1642.0,UO.IRO.--,87
565,UO,EH,HUO,--,44.12,-121.849,2037.0,UO.HUO.--,99
607,UW,EH,OBC,--,48.035,-124.079,938.0,UW.OBC.--,180
608,UW,EH,OFR,--,47.933,-124.396,152.0,UW.OFR.--,146
633,UW,EH,GL2,--,45.96,-120.824,1000.0,UW.GL2.--,21
635,UW,EH,MDW,--,46.613,-119.762,330.0,UW.MDW.--,615
648,UW,EH,PCMD,--,46.889,-122.301,239.0,UW.PCMD.--,9
655,UW,EH,LOC,--,46.717,-119.432,210.0,UW.LOC.--,117
673,UW,EH,OSR,--,47.505,-123.963,815.0,UW.OSR.--,54
674,US,BH,OCWA,--,47.749,-124.178,671.0,US.OCWA.--,49
720,UW,EH,BHW,--,47.836,-122.033,217.0,UW.BHW.--,500
810,UW,EH,HBO,--,43.845,-122.318,1648.0,UW.HBO.--,45
929,UW,BH,RWW,--,46.965,-123.543,15.0,UW.RWW.--,2
942,UW,EH,RRHS,--,46.799,-123.042,47.0,UW.RRHS.--,2
970,UW,EH,VCR,--,44.983,-120.989,1014.0,UW.VCR.--,40
988,UW,EH,VIP,--,44.508,-120.62,1731.0,UW.VIP.--,145
990,UW,EH,JBO,--,45.461,-119.838,645.0,UW.JBO.--,10
1048,UW,EH,SBES,--,48.768,-122.416,119.0,UW.SBES.--,3
1062,UW,EH,ET3,--,46.577,-118.939,286.0,UW.ET3.--,113
1064,UW,EH,WIW,--,46.429,-119.289,128.0,UW.WIW.--,115
1159,UW,EH,LMW,--,46.668,-122.293,1195.0,UW.LMW.--,79
1217,UW,EH,TBM,--,47.17,-120.599,1006.0,UW.TBM.--,113
1254,UW,EH,TWW,--,47.138,-120.869,1027.0,UW.TWW.--,46
1531,UW,EH,BUO,--,42.278,-122.246,1797.0,UW.BUO.--,50
1560,UW,EH,VSP,--,42.342,-121.95,1545.0,UW.VSP.--,17
1676,UW,EH,VG2,--,45.155,-122.272,823.0,UW.VG2.--,65
1951,UW,EH,PGO,--,45.462,-122.454,253.0,UW.PGO.--,41
2191,US,BH,HLID,--,43.562,-114.414,1772.0,US.HLID.--,4
2198,UW,EH,BBO,--,42.888,-122.68,1623.0,UW.BBO.--,62
2212,UW,BH,HOOD,--,45.322,-121.651,1512.0,UW.HOOD.--,1502
2240,UW,BH,HEBO,--,45.214,-123.755,875.0,UW.HEBO.--,48
2284,UW,EH,LNO,--,45.872,-118.287,771.0,UW.LNO.--,58
2339,UW,HH,SEA,--,47.654,-122.309,30.0,UW.SEA.--,9
2395,UW,EH,MOON,--,44.052,-121.67,2240.0,UW.MOON.--,71
2925,UW,EH,BPO,--,44.652,-121.69,1957.0,UW.BPO.--,6
2998,UW,BH,TOLO,--,44.622,-123.923,12.0,UW.TOLO.--,22
3046,UW,EH,WPO,--,45.573,-122.79,334.0,UW.WPO.--,8
3110,UW,EH,BRV,--,46.485,-119.992,920.0,UW.BRV.--,76
4243,UW,EH,MPO,--,44.504,-123.553,1223.0,UW.MPO.--,38
4566,UO,EH,FRIS,--,44.212,-122.102,1642.0,UO.FRIS.--,45
4796,UW,BH,MEGW,--,46.266,-123.877,351.0,UW.MEGW.--,18
4866,UW,EH,BEND,--,44.067,-121.328,1141.0,UW.BEND.--,4
5082,UW,BH,TAKO,--,43.743,-124.082,46.0,UW.TAKO.--,23
5083,UW,EH,RNO,--,43.916,-123.725,850.0,UW.RNO.--,33
5246,UW,EH,ON2,--,46.881,-123.782,257.0,UW.ON2.--,15
5756,CC,BH,WIFE,--,44.06,-121.817,1955.0,CC.WIFE.--,78
5770,UW,BH,LTY,--,47.255,-120.666,807.0,UW.LTY.--,1063
5777,UO,BH,PIN,--,43.811,-120.873,1865.0,UO.PIN.--,6
6226,UW,EH,PCFR,--,46.99,-122.442,137.0,UW.PCFR.--,20
7047,UW,EH,HSO,--,43.526,-123.092,1016.0,UW.HSO.--,9
8075,UW,EH,VVHS,--,47.423,-122.455,98.0,UW.VVHS.--,36
8303,UW,EH,VT2,--,46.967,-120.0,385.0,UW.VT2.--,10
8308,UW,EH,YPT,--,46.049,-118.963,340.0,UW.YPT.--,77
8632,UW,EH,ATES,--,48.236,-122.06,62.6,UW.ATES.--,1
8645,TA,BH,B04A,--,48.057,-123.504,293.8,TA.B04A.--,73
8648,TA,BH,A04A,--,48.72,-122.707,23.0,TA.A04A.--,90
8660,CC,EH,NED,--,46.2,-122.186,2060.0,CC.NED.--,12
8790,CC,BH,STD,--,46.237,-122.224,1189.0,CC.STD.--,2365
9167,TA,BH,D03A,--,47.116,-123.771,31.0,TA.D03A.--,13
9222,CC,BH,JRO,--,46.275,-122.218,1219.0,CC.JRO.--,913
9365,UW,EH,VTH,--,45.181,-120.562,773.0,UW.VTH.--,15
9656,UW,EH,BKC,--,44.299,-121.697,1208.0,UW.BKC.--,4
10055,PB,EH,B006,--,48.059,-123.501,302.0,PB.B006.--,581
10060,PB,EH,B001,--,48.043,-123.131,237.0,PB.B001.--,1344
10103,PB,EH,B007,--,48.058,-123.504,293.0,PB.B007.--,437
10466,TA,BH,C05A,--,47.695,-121.689,541.0,TA.C05A.--,180
10469,TA,BH,H05A,--,44.647,-121.227,720.8,TA.H05A.--,63
10479,TA,BH,F05A,--,45.884,-121.459,454.8,TA.F05A.--,26
10481,TA,BH,A05A,--,48.998,-122.085,174.3,TA.A05A.--,136
10496,TA,BH,B05A,--,48.264,-122.096,154.5,TA.B05A.--,203
10500,TA,BH,C04A,--,47.717,-122.972,53.0,TA.C04A.--,125
10507,TA,BH,F04A,--,45.932,-122.419,211.2,TA.F04A.--,270
10514,TA,BH,E05A,--,46.56,-121.761,1481.0,TA.E05A.--,243
10516,TA,BH,D05A,--,47.188,-121.989,266.4,TA.D05A.--,146
10522,TA,BH,K06A,--,42.799,-120.251,1340.2,TA.K06A.--,27
10523,TA,BH,J06A,--,43.252,-120.153,1407.2,TA.J06A.--,4
10529,TA,BH,D04A,--,47.111,-122.803,31.1,TA.D04A.--,44
10538,TA,BH,E03A,--,46.546,-123.563,72.8,TA.E03A.--,40
10539,TA,BH,F03A,--,45.931,-123.559,324.6,TA.F03A.--,36
10550,TA,BH,E04A,--,46.593,-122.72,215.2,TA.E04A.--,29
10582,TA,BH,H04A,--,44.684,-122.186,652.0,TA.H04A.--,135
10588,TA,BH,G04A,--,45.206,-122.478,272.8,TA.G04A.--,72
10622,TA,BH,G05A,--,45.242,-121.317,594.4,TA.G05A.--,47
10757,PB,EH,B004,--,48.202,-124.427,30.0,PB.B004.--,419
10758,TA,BH,C03A,--,47.947,-124.566,48.4,TA.C03A.--,33
10763,TA,BH,E06A,--,46.543,-120.979,911.0,TA.E06A.--,52
10776,PB,EH,B011,--,48.65,-123.448,22.0,PB.B011.--,1648
10783,PB,EH,B018,--,46.98,-123.02,10.0,PB.B018.--,1803
10787,TA,BH,E07A,--,46.559,-119.855,561.0,TA.E07A.--,28
10952,TA,BH,B09A,--,48.423,-118.149,630.0,TA.B09A.--,16
10960,TA,BH,A09A,--,48.975,-118.585,931.0,TA.A09A.--,6
10961,TA,BH,A08A,--,48.953,-119.272,1089.0,TA.A08A.--,9
10962,TA,BH,C09A,--,47.801,-118.274,495.0,TA.C09A.--,11
10994,US,BH,BMO,--,44.852,-117.306,1154.0,US.BMO.--,29
11000,TA,BH,G06A,--,45.236,-120.635,780.0,TA.G06A.--,262
11017,TA,BH,I06A,--,43.944,-120.211,1296.9,TA.I06A.--,5
11018,TA,BH,H07A,--,44.591,-119.565,1204.0,TA.H07A.--,7
11058,TA,BH,G03A,--,45.315,-123.281,208.0,TA.G03A.--,19
11197,TA,BH,D08A,--,47.057,-118.921,385.0,TA.D08A.--,7
11423,TA,BH,F07A,--,45.895,-119.928,227.0,TA.F07A.--,17
12010,TA,BH,H03A,--,44.676,-123.292,214.3,TA.H03A.--,16
12012,TA,BH,I03A,--,43.973,-123.278,205.7,TA.I03A.--,8
12077,TA,BH,H02A,--,44.676,-124.0,209.1,TA.H02A.--,6
12174,TA,BH,J03A,--,43.372,-122.965,292.0,TA.J03A.--,6
12448,TA,BH,J02A,--,43.365,-123.575,136.2,TA.J02A.--,10
12850,TA,BH,G07A,--,45.266,-119.669,801.0,TA.G07A.--,51
12873,TA,BH,E09A,--,46.514,-118.146,304.0,TA.E09A.--,5
12877,TA,BH,G08A,--,45.29,-118.96,1318.0,TA.G08A.--,15
12879,TA,BH,E08A,--,46.491,-119.06,233.0,TA.E08A.--,16
12880,TA,BH,F09A,--,45.709,-117.909,894.0,TA.F09A.--,6
12890,TA,BH,L02A,--,42.156,-123.602,484.6,TA.L02A.--,5
12892,TA,BH,J05A,--,43.284,-121.236,1540.0,TA.J05A.--,8
12894,TA,BH,L04A,--,42.175,-121.891,1336.0,TA.L04A.--,12
13091,TA,BH,F08A,--,45.797,-118.777,487.0,TA.F08A.--,5
13781,TA,BH,A07A,--,49.048,-120.384,1842.0,TA.A07A.--,19
13784,TA,BH,B06A,--,48.518,-121.484,75.0,TA.B06A.--,67
13789,TA,BH,B07A,--,48.461,-120.12,781.0,TA.B07A.--,35
13806,TA,BH,I05A,--,44.163,-121.268,1011.0,TA.I05A.--,4
13807,TA,BH,H06A,--,44.734,-120.335,516.0,TA.H06A.--,39
13810,UW,EH,BLT,--,45.915,-120.177,659.0,UW.BLT.--,66
13815,TA,BH,F06A,--,45.766,-120.782,577.0,TA.F06A.--,29
13818,PB,EH,B203,--,46.169,-122.334,814.4,PB.B203.--,4536
13845,TA,BH,K05A,--,42.726,-120.893,1887.0,TA.K05A.--,15
13846,TA,BH,K04A,--,42.613,-121.731,1305.0,TA.K04A.--,10
13852,TA,BH,C06A,--,47.923,-120.894,594.0,TA.C06A.--,14
13855,TA,BH,D06A,--,47.194,-120.844,575.0,TA.D06A.--,41
13859,TA,BH,C07A,--,47.69,-120.061,863.0,TA.C07A.--,92
13871,TA,BH,I07A,--,44.082,-119.504,1293.0,TA.I07A.--,8
13879,TA,BH,J07A,--,43.374,-119.311,1273.0,TA.J07A.--,2
13880,TA,BH,K07A,--,42.691,-119.247,1407.0,TA.K07A.--,37
13882,TA,BH,K08A,--,42.731,-118.486,1391.0,TA.K08A.--,12
13893,TA,BH,L07A,--,42.019,-119.34,1816.0,TA.L07A.--,51
13905,TA,BH,L05A,--,42.047,-120.834,1751.0,TA.L05A.--,23
13927,UW,EH,ALKI,--,47.575,-122.418,1.0,UW.ALKI.--,6
13936,TA,BH,H10A,--,44.589,-116.747,882.0,TA.H10A.--,43
13943,TA,BH,A06A,--,49.098,-121.48,576.0,TA.A06A.--,23
13950,TA,BH,F10A,--,45.973,-117.228,1136.0,TA.F10A.--,13
13951,TA,BH,G11A,--,45.4,-116.268,1343.0,TA.G11A.--,15
14047,CC,BH,VALT,--,46.214,-122.189,1681.0,CC.VALT.--,1693
14088,TA,BH,L08A,--,42.19,-118.344,1490.0,TA.L08A.--,6
14089,TA,BH,I08A,--,43.91,-118.569,1189.0,TA.I08A.--,7
14090,TA,BH,J08A,--,43.358,-118.474,1229.0,TA.J08A.--,8
14111,TA,BH,B08A,--,48.358,-119.333,696.0,TA.B08A.--,18
14147,TA,BH,D09A,--,47.062,-118.309,540.0,TA.D09A.--,5
14159,TA,BH,H08A,--,44.519,-118.67,1373.0,TA.H08A.--,12
14160,TA,BH,H09A,--,44.665,-117.664,1263.0,TA.H09A.--,12
14229,UW,BH,WISH,--,47.117,-123.771,45.0,UW.WISH.--,84
14230,US,BH,NLWA,--,47.392,-123.869,640.0,US.NLWA.--,94
14245,TA,BH,K09A,--,42.7,-117.725,1176.0,TA.K09A.--,3
14387,PB,EH,B202,--,46.245,-122.137,1218.6,PB.B202.--,4008
14480,PB,EH,B204,--,46.136,-122.169,784.2,PB.B204.--,3983
14502,TA,BH,K02A,--,42.767,-123.49,963.0,TA.K02A.--,7
14637,TA,BH,H11A,--,44.703,-116.013,1525.0,TA.H11A.--,19
14796,TA,BH,I09A,--,43.973,-117.741,950.0,TA.I09A.--,13
14798,TA,BH,J09A,--,43.347,-117.754,1303.0,TA.J09A.--,5
14802,TA,BH,I11A,--,43.912,-115.958,1288.0,TA.I11A.--,9
14925,TA,BH,C08A,--,47.785,-119.045,783.0,TA.C08A.--,3
15060,TA,BH,G09A,--,45.278,-117.78,1027.0,TA.G09A.--,9
15319,TA,BH,D10A,--,47.055,-117.276,775.0,TA.D10A.--,3
15473,TA,BH,I10A,--,44.086,-116.803,782.0,TA.I10A.--,11
15639,TA,BH,I02A,--,44.004,-123.83,170.1,TA.I02A.--,6
15766,CC,BH,SWFL,--,46.189,-122.202,2268.0,CC.SWFL.--,73
16588,PB,EH,B022,--,45.955,-123.931,10.0,PB.B022.--,57
16649,CC,EH,TIMB,--,45.336,-121.71,1869.0,CC.TIMB.--,839
16726,TA,BH,I04A,--,43.794,-122.411,731.0,TA.I04A.--,132
17558,TA,BH,J10A,--,43.428,-116.767,748.0,TA.J10A.--,4
17642,TA,BH,D07A,--,47.194,-119.973,453.0,TA.D07A.--,3
17711,TA,BH,K01A,--,42.809,-124.469,175.0,TA.K01A.--,2
17765,TA,BH,A10A,--,48.981,-117.559,688.0,TA.A10A.--,2
18702,TA,BH,J11A,--,43.415,-115.828,1302.0,TA.J11A.--,3
19179,UW,EH,LKVW,--,42.224,-120.36,1512.0,UW.LKVW.--,39
19190,PB,EH,B943,--,47.813,-122.911,84.2,PB.B943.--,1986
19191,PB,EH,B941,--,46.987,-122.219,151.0,PB.B941.--,2697
19192,UW,BH,MRBL,--,48.518,-121.484,75.0,UW.MRBL.--,533
19201,PB,EH,B013,--,47.813,-122.911,75.3,PB.B013.--,2705
19211,PB,EH,B026,--,45.309,-123.823,232.0,PB.B026.--,241
19213,UW,BH,LCCR,--,45.206,-122.478,271.0,UW.LCCR.--,432
19260,PB,EH,B005,--,48.059,-123.503,302.7,PB.B005.--,465
19347,PB,EH,B201,--,46.303,-122.265,990.0,PB.B201.--,6356
19420,PB,EH,B032,--,43.668,-123.392,63.8,PB.B032.--,180
19421,PB,EH,B030,--,43.971,-122.772,263.6,PB.B030.--,277
19422,PB,EH,B028,--,44.494,-122.964,140.0,PB.B028.--,283
19432,PB,EH,B928,--,48.834,-125.134,9.5,PB.B928.--,266
19434,PB,EH,B927,--,49.219,-124.811,39.0,PB.B927.--,162
19435,PB,EH,B926,--,48.82,-124.131,191.6,PB.B926.--,425
19511,PB,EH,B012,--,48.925,-125.542,13.0,PB.B012.--,126
19626,UW,BH,BLOW,--,44.684,-122.186,657.3,UW.BLOW.--,561
19641,UW,BH,YACT,--,45.932,-122.419,211.2,UW.YACT.--,1193
19785,CC,BH,TCBU,--,44.241,-121.664,1646.0,CC.TCBU.--,24
19838,PB,EH,B031,--,43.664,-123.397,71.0,PB.B031.--,63
19866,PB,EH,B023,--,46.111,-123.079,177.4,PB.B023.--,965
19867,PB,EH,B020,--,46.383,-123.844,31.2,PB.B020.--,79
19868,UW,BH,FISH,--,45.931,-123.559,327.0,UW.FISH.--,102
20069,CC,BH,PRLK,--,44.21,-121.963,1283.0,CC.PRLK.--,120
20419,PB,EH,B019,--,46.653,-123.652,9.0,PB.B019.--,78
20541,PB,EH,B017,--,46.996,-123.558,33.9,PB.B017.--,114
20937,PB,EH,B040,--,41.831,-122.421,819.5,PB.B040.--,152
20948,PB,EH,B035,--,42.504,-123.383,370.0,PB.B035.--,149
20989,PB,EH,B024,--,45.638,-123.856,37.7,PB.B024.--,227
21127,TA,BH,K10A,--,42.778,-116.87,1701.0,TA.K10A.--,1
21404,UW,EH,GMO,--,44.439,-120.957,1689.0,UW.GMO.--,2
21491,PB,EH,B033,--,43.292,-123.124,312.1,PB.B033.--,203
21760,UW,EH,SUG,--,46.215,-122.176,1859.0,UW.SUG.--,3
22260,PB,EH,B036,--,42.506,-123.382,315.3,PB.B036.--,106
22500,HW,BH,PHIN,--,45.895,-119.928,227.0,HW.PHIN.--,20
23348,UW,BH,KENT,--,45.236,-120.635,780.0,UW.KENT.--,100
23355,HW,BH,CCRK,--,46.559,-119.855,561.0,HW.CCRK.--,103
23363,UW,BH,STOR,--,47.188,-121.989,266.4,UW.STOR.--,909
23394,UW,BH,TOLT,--,47.695,-121.689,541.0,UW.TOLT.--,1191
23412,UW,BH,PASS,--,48.998,-122.085,175.4,UW.PASS.--,239
23416,PB,EH,B014,--,47.513,-123.812,64.7,PB.B014.--,420
23420,US,BH,BMO,00,44.852,-117.306,1154.0,US.BMO.00,79
23421,UW,BH,UMAT,--,45.29,-118.96,1327.8,UW.UMAT.--,83
23422,UW,BH,IRON,--,43.358,-118.474,1226.5,UW.IRON.--,44
23452,UW,BH,OMAK,--,48.358,-119.333,687.1,UW.OMAK.--,218
23464,UW,BH,LEBA,--,46.546,-123.563,78.6,UW.LEBA.--,146
23487,UW,BH,IZEE,--,44.082,-119.504,1293.0,UW.IZEE.--,25
23546,HW,BH,DDRF,--,46.491,-119.06,233.0,HW.DDRF.--,706
23857,UW,BH,WOLL,--,47.057,-118.921,395.1,UW.WOLL.--,54
23883,UW,BH,TREE,--,42.726,-120.893,1887.0,UW.TREE.--,94
24050,UW,BH,BRAN,--,45.973,-117.228,1153.8,UW.BRAN.--,67
24129,UW,BH,SHUK,--,48.853,-121.677,1516.0,UW.SHUK.--,395
24209,TA,BH,I03D,--,43.697,-123.349,140.0,TA.I03D.--,121
24276,PB,EH,B003,--,48.062,-124.141,284.7,PB.B003.--,360
26143,UW,HH,PNLK,--,47.582,-122.035,128.0,UW.PNLK.--,3
29441,UW,BH,LRIV,--,48.057,-123.504,293.8,UW.LRIV.--,543
30989,TA,BH,B05D,--,48.264,-122.096,153.0,TA.B05D.--,933
30992,CN,BH,PGC,--,48.65,-123.452,12.0,CN.PGC.--,1048
30997,CN,BH,SNB,--,48.775,-123.172,402.0,CN.SNB.--,498
30998,CN,EH,VDB,--,49.026,-122.103,404.0,CN.VDB.--,145
31003,UW,BH,DOSE,--,47.717,-122.972,53.3,UW.DOSE.--,2936
31026,TA,BH,A04D,--,48.72,-122.706,13.0,TA.A04D.--,293
31033,UW,EH,STAR,--,46.851,-121.793,3365.0,UW.STAR.--,1090
31035,CC,BH,PANH,--,46.859,-121.643,2086.0,CC.PANH.--,1447
31039,CC,BH,OBSR,--,46.9,-121.815,2382.0,CC.OBSR.--,1908
31052,CN,HH,VGZ,--,48.413,-123.325,67.0,CN.VGZ.--,1087
31072,UO,BH,BUCK,--,44.197,-122.986,964.0,UO.BUCK.--,159
31073,TA,BH,H04D,--,44.523,-122.738,284.0,TA.H04D.--,160
31106,TA,BH,L02D,--,42.158,-123.603,458.0,TA.L02D.--,39
31160,CN,HH,MGB,--,49.0,-124.697,1310.0,CN.MGB.--,107
31161,CN,BH,OZB,--,48.961,-125.498,626.0,CN.OZB.--,138
31164,CN,HH,BTB,--,49.469,-125.523,1607.0,CN.BTB.--,47
31166,CN,BH,NLLB,--,49.227,-123.988,199.0,CN.NLLB.--,183
31212,TA,BH,D03D,--,47.535,-123.089,262.0,TA.D03D.--,1704
31247,TA,BH,D04D,--,47.179,-122.772,37.0,TA.D04D.--,49
31345,TA,BH,G05D,--,45.242,-121.317,592.0,TA.G05D.--,314
31372,UW,BH,RATT,--,47.425,-121.802,442.4,UW.RATT.--,1922
31508,TA,BH,E04D,--,46.557,-122.567,204.0,TA.E04D.--,658
31676,CN,BH,WSLR,--,50.127,-122.921,907.0,CN.WSLR.--,37
31750,TA,BH,L04D,--,42.218,-122.305,1437.0,TA.L04D.--,96
31988,TA,BH,G03D,--,45.212,-123.264,222.0,TA.G03D.--,158
32380,TA,BH,I02D,--,44.106,-123.847,109.0,TA.I02D.--,62
32429,UW,BH,FORK,--,47.947,-124.566,44.9,UW.FORK.--,185
32443,TA,BH,F04D,--,46.083,-123.011,236.0,TA.F04D.--,216
32465,TA,BH,M04C,--,41.783,-121.839,1391.0,TA.M04C.--,49
32467,CN,HH,PFB,--,48.575,-124.454,449.0,CN.PFB.--,123
32558,CN,BH,SHB,--,49.599,-123.877,1129.0,CN.SHB.--,82
33202,TA,BH,J05D,--,43.285,-121.235,1541.0,TA.J05D.--,132
33699,TA,BH,J04D,--,43.24,-122.109,1948.0,TA.J04D.--,15
34250,TA,BH,M02C,--,41.392,-122.854,960.0,TA.M02C.--,7
34336,TA,BH,I05D,--,44.339,-121.34,811.0,TA.I05D.--,13
34429,TA,BH,K04D,--,42.625,-121.754,1315.0,TA.K04D.--,57
35612,UW,BH,DAVN,--,47.801,-118.274,482.6,UW.DAVN.--,66
36038,TA,BH,F05D,--,45.885,-121.46,472.0,TA.F05D.--,60
36344,TA,BH,K02D,--,42.696,-123.665,989.0,TA.K02D.--,97
37582,UW,EH,GBB,--,46.609,-119.629,185.0,UW.GBB.--,660
37607,US,BH,HAWA,00,46.392,-119.533,364.0,US.HAWA.00,725
37608,UW,EH,H2O,--,46.396,-119.424,175.0,UW.H2O.--,482
37622,UW,BH,BABR,--,44.621,-123.789,438.7,UW.BABR.--,90
37788,CN,BH,PNT,--,49.322,-119.625,531.0,CN.PNT.--,124
38210,UW,BH,JEDS,--,43.752,-124.049,159.5,UW.JEDS.--,89
38211,TA,BH,J01D,--,43.161,-123.931,131.0,TA.J01D.--,30
38489,CC,EH,SUG,--,46.215,-122.176,1859.0,CC.SUG.--,316
38526,UW,BH,RADR,--,46.422,-123.799,591.4,UW.RADR.--,53
39082,US,BH,NLWA,00,47.392,-123.869,640.0,US.NLWA.00,257
39115,UW,EH,BEN,--,46.519,-119.718,335.0,UW.BEN.--,103
43384,CC,EH,CLMS,--,42.923,-122.016,2719.0,CC.CLMS.--,25
45869,UW,BH,CCRK,--,46.559,-119.855,561.0,UW.CCRK.--,535
45875,US,BH,HLID,00,43.562,-114.414,1772.0,US.HLID.00,5
46238,CN,BH,EDB,--,49.873,-127.122,150.0,CN.EDB.--,3
46269,US,BH,NEW,00,48.264,-117.123,760.0,US.NEW.00,55
46316,UW,EH,UMPQ,--,43.291,-123.332,162.0,UW.UMPQ.--,3
46501,US,BH,WVOR,00,42.434,-118.637,1344.0,US.WVOR.00,449
46505,UO,BH,PINE,--,43.792,-120.941,1914.0,UO.PINE.--,64
46506,CC,BH,SWNB,--,43.673,-121.355,1569.0,CC.SWNB.--,100
46509,CN,BH,PHC,--,50.707,-127.433,32.0,CN.PHC.--,1
46565,UW,BH,PHIN,--,45.895,-119.928,227.0,UW.PHIN.--,95
46653,UW,EH,AUG,--,45.736,-121.682,865.0,UW.AUG.--,22
47043,UW,BH,DDRF,--,46.491,-119.06,233.0,UW.DDRF.--,202
47276,CC,BH,NORM,--,43.739,-121.253,1286.0,CC.NORM.--,100
47277,CC,BH,ASBU,--,43.821,-121.368,1538.0,CC.ASBU.--,29
47332,UW,EH,GLDO,--,45.839,-120.815,610.0,UW.GLDO.--,20
47368,CC,EH,SEP,--,46.2,-122.191,2116.0,CC.SEP.--,436
47813,UW,EH,ET4,--,46.563,-118.945,236.0,UW.ET4.--,45
47827,UW,EH,SNI,--,46.464,-119.661,323.0,UW.SNI.--,104
47900,UW,EH,RED,--,46.297,-119.439,330.0,UW.RED.--,91
48547,UW,EH,TIMB,--,45.336,-121.71,1869.0,UW.TIMB.--,38
48892,CN,EH,GDR,--,49.781,-126.056,123.0,CN.GDR.--,13
48896,CN,BH,CBB,--,50.032,-125.365,277.0,CN.CBB.--,13
49292,CC,BH,TMBU,--,43.602,-121.145,1743.0,CC.TMBU.--,60
49898,CC,BH,CPCO,--,43.722,-121.233,2135.0,CC.CPCO.--,54
51189,UW,BH,TUCA,--,46.514,-118.146,304.0,UW.TUCA.--,36
58102,CC,BH,CIHL,--,43.751,-121.149,1966.0,CC.CIHL.--,69
58132,UW,EH,MORO,--,45.474,-120.742,557.0,UW.MORO.--,5
58234,CC,EH,SVIC,--,43.643,-121.253,1765.0,CC.SVIC.--,194
59618,CC,BH,SWF2,--,46.178,-122.217,1548.0,CC.SWF2.--,538
60041,CC,EH,HIYU,--,45.435,-121.807,1418.0,CC.HIYU.--,662
60480,UW,EH,NCO,--,43.704,-121.14,1908.0,UW.NCO.--,11
60590,CC,EH,CLCV,--,42.976,-122.089,1892.0,CC.CLCV.--,22
60591,CC,EH,WIZ,--,42.934,-122.149,1884.0,CC.WIZ.--,57
64944,TA,BH,N02D,--,40.974,-122.705,937.0,TA.N02D.--,1
72629,TA,BH,L02E,--,42.158,-123.603,454.0,TA.L02E.--,14
72649,TA,BH,C06D,--,47.923,-120.894,544.0,TA.C06D.--,44
76609,UW,EH,IONE,--,45.498,-119.828,317.0,UW.IONE.--,3
85028,CC,EH,OSO2,--,48.287,-121.853,279.0,CC.OSO2.--,1
86046,TA,BH,D04E,--,47.179,-122.771,45.0,TA.D04E.--,58
86165,UW,EH,NN32,01,43.704,-121.327,1401.0,UW.NN32.01,41
86167,CC,EH,KWBU,--,43.752,-121.312,1783.0,CC.KWBU.--,89
86186,UW,EH,NN17,01,43.721,-121.327,1701.0,UW.NN17.01,71
86188,UW,EH,NN19,01,43.718,-121.307,1793.0,UW.NN19.01,157
86993,CC,BH,SHRK,--,45.464,-121.529,1318.7,CC.SHRK.--,623
87017,CC,EH,CRBU,--,43.56,-121.71,1653.0,CC.CRBU.--,51
87255,CC,BH,CRST,--,43.461,-121.699,1354.0,CC.CRST.--,7
87301,CC,EH,PALM,--,45.359,-121.705,2590.0,CC.PALM.--,381
87598,CC,BH,CLBH,--,42.908,-122.144,2197.0,CC.CLBH.--,33
87988,CC,EH,HUSB,--,44.12,-121.849,2038.0,CC.HUSB.--,53
93652,UW,EH,HGBL,--,46.598,-119.461,331.4,UW.HGBL.--,17
95440,UW,EH,NN21,01,43.733,-121.29,1903.0,UW.NN21.01,27
96983,UW,EH,PAT2,--,45.884,-119.758,259.0,UW.PAT2.--,12
97779,TA,BH,L02F,--,42.121,-123.571,440.0,TA.L02F.--,7
98108,UO,HH,RAIN,--,46.083,-123.011,236.5,UO.RAIN.--,155
98166,UO,HH,DRAN,--,43.697,-123.349,140.6,UO.DRAN.--,40
98169,UO,HH,NATH,--,43.794,-122.411,729.0,UO.NATH.--,43
98183,UO,HH,MINN,--,45.212,-123.264,222.0,UO.MINN.--,126
98674,UO,HH,JESE,--,45.242,-121.317,592.0,UO.JESE.--,111
98922,UO,HH,BEER,--,44.108,-123.847,117.0,UO.BEER.--,32
99202,UO,HH,WLOO,--,44.523,-122.738,284.0,UO.WLOO.--,117
106115,UO,HH,CAVE,--,42.121,-123.571,440.0,UO.CAVE.--,46
106117,UO,HH,ROGE,--,42.696,-123.665,989.0,UO.ROGE.--,34
106118,UO,HH,LAIR,--,43.161,-123.931,127.8,UO.LAIR.--,37
108895,CN,HH,SYMB,--,48.559,-123.799,945.0,CN.SYMB.--,267
109191,CN,HH,BFSB,--,48.834,-125.136,33.0,CN.BFSB.--,53
109240,CN,EH,BIB,--,49.41,-123.311,38.0,CN.BIB.--,17
109289,UW,HH,BES3,--,47.642,-122.525,57.0,UW.BES3.--,10
109381,CC,BH,PR04,--,46.93,-121.989,910.0,CC.PR04.--,181
109392,UO,EH,RSBO,--,44.043,-122.267,1235.0,UO.RSBO.--,94
109465,UW,HH,BES4,--,47.643,-122.646,63.0,UW.BES4.--,6
109475,UW,HH,BES5,--,47.584,-122.569,4.0,UW.BES5.--,23
109760,CC,BH,PR01,--,46.91,-122.038,648.0,CC.PR01.--,124
109781,CC,BH,PR05,--,46.842,-121.949,1553.0,CC.PR05.--,1529
109798,CC,BH,PR03,--,46.903,-122.033,523.0,CC.PR03.--,72
109803,UW,EH,FMW,01,46.941,-121.671,1859.0,UW.FMW.01,29
109818,UW,HH,MANO,--,46.951,-120.725,1200.0,UW.MANO.--,87
109897,UW,HH,SNI2,--,46.465,-119.655,294.2,UW.SNI2.--,165
110026,UW,HH,EPH2,--,47.371,-119.612,690.0,UW.EPH2.--,88
110132,UO,HH,WOOD,--,42.218,-122.305,1437.0,UO.WOOD.--,75
110133,UO,HH,CHIL,--,42.625,-121.754,1315.0,UO.CHIL.--,22
110138,CN,HH,GOBB,--,48.949,-123.51,173.0,CN.GOBB.--,86
110140,CN,HH,CLRS,--,48.82,-124.131,174.0,CN.CLRS.--,184
110243,UO,HH,TOOM,--,43.285,-121.235,1541.0,UO.TOOM.--,23
110327,CN,HH,PTRF,--,48.544,-124.413,164.0,CN.PTRF.--,111
110423,UW,EH,H1K,--,46.645,-119.593,152.0,UW.H1K.--,1
110497,CN,HH,HOPB,--,49.387,-121.421,236.0,CN.HOPB.--,46
111023,UW,EH,RPW,01,48.448,-121.515,850.0,UW.RPW.01,161
111024,UW,EH,MBW,01,48.784,-121.901,1676.0,UW.MBW.01,77
111940,CN,EH,TXB,--,49.698,-124.438,492.0,CN.TXB.--,2
117030,UO,HH,FHAC,--,44.339,-121.34,811.0,UO.FHAC.--,14
119350,UW,EH,HWIW,--,46.429,-119.289,129.0,UW.HWIW.--,5
119410,CN,HH,HNBB,--,49.287,-122.573,392.0,CN.HNBB.--,14
119647,UW,HH,LUMI,--,48.72,-122.706,19.4,UW.LUMI.--,227
119650,UW,HH,BERY,--,48.264,-122.096,149.6,UW.BERY.--,586
119685,UW,EH,LCW2,--,46.663,-122.698,325.8,UW.LCW2.--,39
119720,UW,EH,GPW,01,48.118,-121.138,2354.0,UW.GPW.01,168
119820,UO,HH,VERN,--,45.853,-123.247,198.0,UO.VERN.--,123
119833,UO,HH,DFAZ,--,43.241,-122.109,1948.0,UO.DFAZ.--,2
120175,UW,HH,KREP,--,45.885,-121.46,472.0,UW.KREP.--,27
120189,CC,EH,AWST,--,46.145,-121.771,1159.0,CC.AWST.--,42
120323,UO,HH,MARQ,--,45.066,-122.669,159.0,UO.MARQ.--,150
120474,UW,EH,RVW2,--,46.153,-122.741,573.9,UW.RVW2.--,33
120484,UW,EH,MCW,01,48.679,-122.833,693.0,UW.MCW.01,94
121349,CC,BH,PR02,--,46.918,-122.049,461.0,CC.PR02.--,57
121410,UW,EH,STAR,01,46.851,-121.793,3365.0,UW.STAR.01,619
121813,UW,EH,BOW2,--,46.477,-123.233,925.0,UW.BOW2.--,15
130353,CC,BH,RUSH,--,46.903,-121.944,1235.0,CC.RUSH.--,443
130355,CC,BH,CARB,--,46.988,-122.005,872.5,CC.CARB.--,824
130365,CC,BH,SIFT,--,46.867,-121.953,732.0,CC.SIFT.--,1371
130373,UW,HH,SLDQ,--,48.062,-124.141,297.3,UW.SLDQ.--,71
130376,UO,HH,DING,--,42.862,-124.054,100.0,UO.DING.--,29
130378,UO,HH,SISQ,--,42.275,-123.632,395.0,UO.SISQ.--,30
130396,UO,HH,WYLD,--,43.145,-123.429,274.0,UO.WYLD.--,6
130413,UW,HH,CINE,--,46.557,-122.567,203.4,UW.CINE.--,214
130417,CC,BH,REM,--,46.2,-122.186,1905.4,CC.REM.--,393
130420,UW,HH,TKEY,--,47.179,-122.771,47.4,UW.TKEY.--,108
130422,UW,HH,TOLE,--,46.453,-122.845,84.7,UW.TOLE.--,24
130429,UW,HH,DONK,--,48.424,-122.157,892.8,UW.DONK.--,310
130433,UW,HH,RPW2,--,48.445,-121.526,683.0,UW.RPW2.--,599
130451,UW,HH,WAT2,--,47.62,-120.114,875.1,UW.WAT2.--,299
130480,UW,HH,HOPR,--,47.923,-120.894,596.8,UW.HOPR.--,139
130501,UO,HH,ALSE,--,44.382,-123.59,95.0,UO.ALSE.--,12
130561,UW,HH,NIKE,--,46.392,-119.533,368.7,UW.NIKE.--,183
130564,UW,HH,LIGO,--,46.462,-119.418,157.0,UW.LIGO.--,45
130673,UW,HH,OLQN,--,47.513,-123.812,86.3,UW.OLQN.--,67
130861,UW,HH,SSO2,--,44.841,-122.483,1202.0,UW.SSO2.--,85
131035,UW,EH,PUPY,--,46.495,-122.146,816.3,UW.PUPY.--,44
131421,UW,EH,RED2,--,46.305,-119.453,334.0,UW.RED2.--,31
132425,UW,HH,WHGC,--,46.656,-123.73,5.4,UW.WHGC.--,15
134584,UO,HH,OTLW,--,44.297,-121.574,983.0,UO.OTLW.--,3
138290,CN,HH,LLLB,--,50.609,-121.882,700.0,CN.LLLB.--,1
138496,CN,HH,WOSB,--,50.161,-126.57,961.0,CN.WOSB.--,2
140705,UW,EH,GRUT,--,46.551,-119.51,205.8,UW.GRUT.--,1
141405,UO,HH,LOKI,--,45.062,-123.107,159.3,UO.LOKI.--,38
141406,UO,HH,NBFR,--,45.726,-123.853,12.5,UO.NBFR.--,13
141410,UO,HH,KBO,--,42.212,-124.226,1010.0,UO.KBO.--,10
141456,UW,HH,FISH2,--,45.928,-123.499,146.3,UW.FISH2.--,27
141624,UO,HH,PF27,--,45.545,-122.76,332.0,UO.PF27.--,39
141692,CC,BH,VOIT,--,46.966,-121.983,977.1,CC.VOIT.--,675
141698,CC,BH,PARA,--,46.786,-121.742,1651.2,CC.PARA.--,678
141699,CC,BH,OPCH,--,46.731,-121.571,592.4,CC.OPCH.--,249
141720,UW,HH,SALO,--,47.952,-122.373,146.9,UW.SALO.--,144
141727,CC,BH,CRBN,--,46.988,-121.961,499.1,CC.CRBN.--,459
141746,CC,BH,KAUT,--,46.73,-121.857,689.0,CC.KAUT.--,200
141836,UW,HH,WYNO,--,47.434,-123.613,935.4,UW.WYNO.--,92
141948,CC,BH,LSON,--,45.36,-121.647,1880.0,CC.LSON.--,279
141949,CC,BH,BRSP,--,45.402,-121.708,2080.0,CC.BRSP.--,226
141992,UO,HH,SALT,--,42.493,-122.588,1179.4,UO.SALT.--,37
142009,UO,HH,KUHN,--,45.785,-122.896,90.8,UO.KUHN.--,41
142179,CN,HH,WPB,--,49.648,-123.209,260.0,CN.WPB.--,9
142308,CC,BH,GTWY,--,46.74,-121.917,617.2,CC.GTWY.--,167
142338,UW,HH,HILL,--,48.388,-122.447,38.1,UW.HILL.--,93
142369,CC,BH,YOCR,--,45.379,-121.743,1913.7,CC.YOCR.--,412
142373,CN,HH,VDEB,--,49.057,-122.057,351.0,CN.VDEB.--,35
142397,CC,BH,STD,01,46.237,-122.224,1259.0,CC.STD.01,302
142525,UO,HH,GROV,--,45.538,-123.158,99.0,UO.GROV.--,38
142715,UO,HH,MONKS,--,45.994,-123.004,380.0,UO.MONKS.--,31
142907,UW,HH,PRIN,--,48.212,-122.631,62.2,UW.PRIN.--,78
143863,CN,HH,PABB,--,49.219,-124.811,36.0,CN.PABB.--,8
144257,UO,HH,PERY,--,45.041,-123.26,54.2,UO.PERY.--,21
144660,UO,HH,IRYS,--,43.886,-123.257,330.8,UO.IRYS.--,25
146938,UO,HH,HBUG,--,42.641,-124.379,387.7,UO.HBUG.--,20
146939,UO,HH,KEB,--,42.872,-124.334,846.0,UO.KEB.--,10
150080,UO,HH,VITI,--,44.282,-123.318,257.8,UO.VITI.--,31
151900,UO,HH,JAZZ,--,43.034,-118.935,1585.0,UO.JAZZ.--,17
152039,UO,HH,WIKI,--,46.106,-123.585,816.6,UO.WIKI.--,9
152040,UW,HH,SEAS2,--,46.036,-123.896,59.3,UW.SEAS2.--,2
152082,UW,HH,CORE,--,46.926,-123.914,46.0,UW.CORE.--,9
152090,IU,BH,COR,00,44.586,-123.305,-40.0,IU.COR.00,13
152388,CN,HH,MGRB,--,49.0,-124.697,1310.0,CN.MGRB.--,5
155574,UW,HH,TWISP,--,48.461,-120.12,756.2,UW.TWISP.--,105
155576,UW,HH,SAXON,--,48.683,-122.161,110.8,UW.SAXON.--,127
155627,CC,BH,LOO,--,46.224,-122.184,1521.3,CC.LOO.--,106
155632,CC,BH,HOA,--,46.242,-122.192,1151.0,CC.HOA.--,94
155638,UW,HH,LACKA,--,46.852,-122.486,157.2,UW.LACKA.--,12
155651,UW,HH,WPEQ,--,46.613,-121.405,1807.0,UW.WPEQ.--,77
155677,UW,HH,YELM,--,46.94,-122.591,102.9,UW.YELM.--,12
155678,CC,BH,UNFR,--,46.273,-122.292,907.8,CC.UNFR.--,361
155726,UW,HH,RNWY,--,48.612,-123.126,58.2,UW.RNWY.--,138
155727,UW,HH,OLGA,--,48.605,-122.803,21.9,UW.OLGA.--,114
155728,UW,HH,LOPEZ,--,48.437,-122.887,10.5,UW.LOPEZ.--,110
155754,UO,HH,TRIPT,--,45.63,-123.644,976.2,UO.TRIPT.--,25
155768,UW,HH,MULN,--,48.535,-122.064,101.7,UW.MULN.--,222
155779,UW,HH,NEMA,--,46.497,-123.75,509.4,UW.NEMA.--,10
155806,UW,HH,EAGLE,--,47.258,-122.998,58.3,UW.EAGLE.--,20
155807,UW,HH,WINDI,--,47.314,-123.332,594.0,UW.WINDI.--,59
155809,UW,HH,PAN4H,--,47.176,-123.27,131.7,UW.PAN4H.--,116
155810,UW,HH,DOORS,--,47.055,-123.257,133.2,UW.DOORS.--,40
155820,UW,HH,MOODY,--,47.209,-124.014,33.2,UW.MOODY.--,12
155821,UW,HH,HOQUI,--,47.081,-123.957,101.0,UW.HOQUI.--,11
155866,UW,HH,HANS,--,47.907,-122.569,77.5,UW.HANS.--,127
155940,UW,HH,COWS,--,47.666,-121.931,133.2,UW.COWS.--,74
155962,UW,HH,CHIMA,--,48.011,-122.781,38.4,UW.CHIMA.--,102
156032,UW,HH,NATEM,--,48.106,-122.818,64.0,UW.NATEM.--,21
156183,UW,HH,LEID,--,46.829,-123.465,534.8,UW.LEID.--,33
156256,UW,HH,DOTY,--,46.705,-123.369,429.8,UW.DOTY.--,25
156392,UW,HH,OSQM,--,48.043,-123.131,234.9,UW.OSQM.--,74
156564,UW,HH,BHAM,--,48.787,-122.418,113.2,UW.BHAM.--,24
156756,UW,HH,GUEM,--,48.547,-122.63,52.5,UW.GUEM.--,16
156963,UW,HH,LOKMT,--,47.15,-120.789,824.1,UW.LOKMT.--,12
156966,UW,HH,TBLMT,--,47.173,-120.598,1088.3,UW.TBLMT.--,17
156994,CC,BH,MAR,--,46.285,-122.297,679.3,CC.MAR.--,36
157230,UW,HH,ANGUS,--,47.101,-123.493,89.7,UW.ANGUS.--,19
157598,UW,HH,MJO1,--,48.582,-121.938,757.1,UW.MJO1.--,16
157622,UW,HH,LCV,--,46.008,-118.277,357.6,UW.LCV.--,11
159402,UW,HH,BDGR,--,46.858,-120.298,642.4,UW.BDGR.--,23
159623,UW,HH,BOIS,--,46.55,-123.13,79.8,UW.BOIS.--,17
159982,UW,HH,ARTIC,--,46.805,-123.759,127.9,UW.ARTIC.--,12
159983,UW,HH,DEAL,--,46.741,-123.559,319.1,UW.DEAL.--,12
159985,UW,HH,MONTE,--,47.024,-123.575,168.1,UW.MONTE.--,10
160124,UW,HH,BICK,--,46.04,-120.339,1164.1,UW.BICK.--,20
161067,UW,HH,RVSD,--,47.965,-117.357,610.8,UW.RVSD.--,5
164193,UO,HH,VINO,--,43.428,-123.422,318.6,UO.VINO.--,12
164992,UW,HH,TOUCH,--,46.023,-118.631,141.8,UW.TOUCH.--,11
167107,UO,HH,UCHR,--,44.835,-123.871,741.6,UO.UCHR.--,9
167990,UW,HH,SKAMO,--,46.308,-123.338,336.4,UW.SKAMO.--,8
168519,CC,BH,NFT,--,46.269,-122.255,830.0,CC.NFT.--,14
172226,UW,HH,MORSE,--,47.689,-122.515,35.9,UW.MORSE.--,28
172227,UW,HH,KNGST,--,47.803,-122.515,18.6,UW.KNGST.--,45
172228,UW,HH,EQUIL,--,47.835,-122.854,26.2,UW.EQUIL.--,20
172233,UW,HH,KTSAP,--,47.518,-122.939,166.9,UW.KTSAP.--,20
172240,UW,HH,COYL,--,47.697,-122.788,95.9,UW.COYL.--,79
172253,UW,HH,SKOKO,--,47.409,-123.367,949.6,UW.SKOKO.--,27
172258,CC,BH,TRON,--,46.998,-122.174,251.7,CC.TRON.--,37
172274,UW,HH,TNSKT,--,48.722,-119.442,394.9,UW.TNSKT.--,21
172277,UW,HH,GOBBL,--,48.675,-118.73,1182.2,UW.GOBBL.--,19
172308,CC,BH,USFR,--,46.215,-122.233,1341.8,CC.USFR.--,21
172316,UW,HH,ASR2,--,46.14,-121.597,1272.8,UW.ASR2.--,3
172330,UO,HH,STONY,--,45.218,-123.454,518.7,UO.STONY.--,16
172332,UO,HH,TRASK,--,45.389,-123.524,782.9,UO.TRASK.--,8
172340,UO,HH,OLBLU,--,43.511,-123.669,772.3,UO.OLBLU.--,5
172387,UW,HH,CROWN,--,48.303,-124.479,399.4,UW.CROWN.--,25
172405,UW,HH,WATCH,--,46.571,-121.987,1462.6,UW.WATCH.--,32
172409,CC,BH,ARAT,--,46.789,-121.853,1822.4,CC.ARAT.--,26
172410,CC,BH,WOW,--,46.78,-121.885,875.5,CC.WOW.--,26
172411,CC,BH,COPP,--,46.798,-121.828,1896.0,CC.COPP.--,37
172412,CC,BH,MILD,--,46.808,-121.776,2014.8,CC.MILD.--,48
172413,CC,BH,TABR,--,46.804,-121.85,1278.2,CC.TABR.--,36
172414,CC,BH,TAVI,--,46.796,-121.884,1054.7,CC.TAVI.--,48
172415,CC,BH,GNOB,--,46.794,-121.914,1659.4,CC.GNOB.--,14
172473,UW,HH,COWL,--,46.482,-122.665,182.7,UW.COWL.--,16
172642,UO,HH,RANT,--,42.035,-121.276,1966.1,UO.RANT.--,4
172723,UO,HH,SKAN,--,46.066,-123.282,630.6,UO.SKAN.--,6
172725,UW,HH,ABER,--,46.343,-123.099,786.3,UW.ABER.--,7
172736,UO,HH,GRSDL,--,46.019,-123.705,626.9,UO.GRSDL.--,5
172737,UO,HH,REDMO,--,42.123,-124.3,525.0,UO.REDMO.--,5
172739,UO,HH,CHUCK,--,42.01,-124.198,122.8,UO.CHUCK.--,7
172809,CC,BH,STYX,--,46.964,-122.08,568.3,CC.STYX.--,53
172844,UO,HH,DUTCH,--,42.044,-122.892,2257.5,UO.DUTCH.--,4
173149,UO,HH,TBLE,--,42.93,-123.558,1000.5,UO.TBLE.--,1
173191,UW,HH,HERD,--,47.228,-123.653,178.1,UW.HERD.--,7
173195,UW,HH,INGAL,--,46.721,-123.182,158.6,UW.INGAL.--,7
173979,UW,HH,BHCR,--,48.129,-118.041,1075.8,UW.BHCR.--,4
174005,UW,HH,SNAG,--,48.206,-124.52,597.7,UW.SNAG.--,18
174078,UW,HH,OHOH,--,47.86,-123.932,179.2,UW.OHOH.--,9
174128,UO,HH,TDWTR,--,44.349,-123.886,590.6,UO.TDWTR.--,2
174518,UW,HH,LBRT,--,47.382,-117.325,752.8,UW.LBRT.--,4
174830,UO,HH,NECAN,--,45.865,-123.824,514.7,UO.NECAN.--,2
177214,UO,HH,DEAN,--,43.614,-123.98,550.7,UO.DEAN.--,2
181505,UW,HH,DATON,--,46.264,-117.926,815.1,UW.DATON.--,1
182346,CN,HH,TXDB,--,49.698,-124.438,501.0,CN.TXDB.--,1
